{
  "cri": {
    "method": "Discrete-time survival / pooled-logistic hazard on a corner-week panel; gradient-boosted. Predicts P(corner records a violation next week | its history). Place-based \u2014 never scores individuals.",
    "n_cells": 3902,
    "n_panel": 74138,
    "weeks": 21,
    "split_week": 16,
    "base_rate": 0.351,
    "auc": 0.797,
    "auc_logreg": 0.778,
    "brier": 0.163,
    "auc_persistence": 0.711,
    "beats_baseline": 0.086,
    "precision_at50": 0.98,
    "lift_at50": 2.8,
    "high_risk_count": 1191,
    "dormant_flag_count": 260,
    "top_features": [
      {
        "name": "ewma",
        "importance": 0.76
      },
      {
        "name": "last4",
        "importance": 0.076
      },
      {
        "name": "active_weeks",
        "importance": 0.051
      },
      {
        "name": "harm",
        "importance": 0.042
      },
      {
        "name": "cum",
        "importance": 0.028
      },
      {
        "name": "c_now",
        "importance": 0.016
      }
    ],
    "next_week": [
      {
        "label": "BTP044 - Sagar Theatre Junction",
        "prob": 0.85,
        "recent": 0,
        "weeks_quiet": 1,
        "lat": 12.97271,
        "lon": 77.57905
      },
      {
        "label": "MBT Road",
        "prob": 0.85,
        "recent": 0,
        "weeks_quiet": 1,
        "lat": 13.00566,
        "lon": 77.68573
      },
      {
        "label": "BTP027 - Modi Bridge Junction",
        "prob": 0.82,
        "recent": 0,
        "weeks_quiet": 1,
        "lat": 12.99908,
        "lon": 77.54855
      },
      {
        "label": "BTP071 - Prasanna Junction",
        "prob": 0.81,
        "recent": 0,
        "weeks_quiet": 1,
        "lat": 12.97378,
        "lon": 77.55158
      },
      {
        "label": "BTP032 - Windsor Circle",
        "prob": 0.8,
        "recent": 0,
        "weeks_quiet": 1,
        "lat": 12.99642,
        "lon": 77.58448
      },
      {
        "label": "Bengaluru Bellary Road",
        "prob": 0.77,
        "recent": 0,
        "weeks_quiet": 1,
        "lat": 13.19128,
        "lon": 77.64627
      },
      {
        "label": "15th Cross Road",
        "prob": 0.77,
        "recent": 0,
        "weeks_quiet": 1,
        "lat": 13.06362,
        "lon": 77.58706
      },
      {
        "label": "BTP180 - Swagath Poornima Theatre",
        "prob": 0.76,
        "recent": 0,
        "weeks_quiet": 1,
        "lat": 12.96118,
        "lon": 77.58711
      },
      {
        "label": "BTP038 - Mysore Bank Junction",
        "prob": 0.76,
        "recent": 0,
        "weeks_quiet": 1,
        "lat": 12.97576,
        "lon": 77.58143
      },
      {
        "label": "Coles Road",
        "prob": 0.76,
        "recent": 0,
        "weeks_quiet": 1,
        "lat": 12.99662,
        "lon": 77.6114
      }
    ],
    "conformal": {
      "alpha": 0.1,
      "miss_at10": 0.076,
      "test_base_rate": 0.326,
      "ece": 0.064,
      "guarantee": [
        {
          "alpha": 0.05,
          "miss": 0.046
        },
        {
          "alpha": 0.1,
          "miss": 0.076
        },
        {
          "alpha": 0.2,
          "miss": 0.168
        }
      ],
      "buckets": {
        "refire": {
          "n": 5240,
          "rate": 0.683
        },
        "quiet": {
          "n": 4603,
          "rate": 0.105
        },
        "abstain": {
          "n": 9667,
          "rate": 0.238
        }
      }
    }
  },
  "tq": {
    "method": "Supervised gradient-boosted classifier on validation_status (approved vs rejected) \u2014 a real 165k-row label. Flags enforcement QUALITY / contestable tickets; audits process, not people.",
    "n_labeled": 165076,
    "base_reject": 0.301,
    "auc": 0.603,
    "accuracy": 0.634,
    "top_features": [
      {
        "name": "device history",
        "importance": 0.62
      },
      {
        "name": "hour of day",
        "importance": 0.118
      },
      {
        "name": "operator history",
        "importance": 0.096
      },
      {
        "name": "offence-type history",
        "importance": 0.071
      },
      {
        "name": "type:CAR",
        "importance": 0.041
      },
      {
        "name": "day of week",
        "importance": 0.022
      }
    ],
    "high_reject_stations": [
      {
        "name": "K.G. Halli",
        "reject_rate": 0.417,
        "n": 513
      },
      {
        "name": "Kodigehalli",
        "reject_rate": 0.414,
        "n": 4018
      },
      {
        "name": "Peenya",
        "reject_rate": 0.389,
        "n": 589
      },
      {
        "name": "Madiwala",
        "reject_rate": 0.387,
        "n": 803
      },
      {
        "name": "Byatarayanapura",
        "reject_rate": 0.379,
        "n": 2747
      },
      {
        "name": "Electronic City",
        "reject_rate": 0.374,
        "n": 1973
      }
    ]
  }
}